headline,city,country,longitude,latitude,countrycode,kmeans_label,dbscan_label
Zika Outbreak Hits Miami,Miami,United States,-80.19366,25.77427,US,3,0
Could Zika Reach New York City?,New York City,United States,-74.00597,40.71427,US,3,0
First Case of Zika in Miami Beach,Miami Beach,United States,-80.13005,25.79065,US,3,0
"Mystery Virus Spreads in Recife, Brazil",Recife,Brazil,-34.88111,-8.05389,BR,5,1
Dallas man comes down with case of Zika,Dallas,United States,-96.80667,32.78306,US,9,0
Trinidad confirms first Zika case,Trinidad,Cuba,-79.98467,21.80224,CU,1,0
Zika Concerns are Spreading in Houston,Houston,United States,-95.36327,29.76328,US,9,0
Geneve Scientists Battle to Find Cure,Geneve,Switzerland,6.14569,46.20222,CH,2,2
The CDC in Atlanta is Growing Worried,Atlanta,United States,-84.38798,33.749,US,3,0
Zika Infested Monkeys in Sao Paulo,Sao Paulo,Brazil,-46.63611,-23.5475,BR,5,1
Brownsville teen contracts Zika virus,Brownsville,United States,-97.49748,25.90175,US,9,0
Mosquito control efforts in St. Louis take new tactics with Zika threat,St. Louis,United States,-90.19789,38.62727,US,9,0
San Juan reports 1st U.S. Zika-related death amid outbreak,San Juan,Puerto Rico,-66.10572,18.46633,PR,1,0
"Flu outbreak in Galveston, Texas",Galveston,United States,-94.7977,29.30135,US,9,0
Zika alert a Manila now threatened,Manila,Philippines,120.9822,14.6042,PH,10,3
Zika afflicts 7 in Iloilo City,Iloilo,Philippines,122.56444,10.69694,PH,10,3
New Los Angeles Hairstyle goes Viral,Los Angeles,United States,-118.24368,34.05223,US,4,0
Orlando volunteers aid Zika research,Orlando,United States,-81.37924,28.53834,US,3,0
Zika infects pregnant woman in Cebu,Cebu City,Philippines,123.89071,10.31672,PH,10,3
Chicago's First Zika Case Confirmed,Chicago,United States,-87.65005,41.85003,US,3,0
Tampa Bay Area Zika Case Count Climbs,Tampa,United States,-82.45843,27.94752,US,3,0
"Bad Water Leads to Sickness in Flint, Michigan",Flint,United States,-83.68746,43.01253,US,3,0
Baltimore plans for Zika virus,Baltimore,United States,-76.61219,39.29038,US,3,0
London Health Unit Tracks Mad Cow Disease,London,United Kingdom,-0.12574,51.50853,GB,2,2
Zika cases in Vietnam's Ho Chi Minh City surge,Ho Chi Minh City,Vietnam,106.62965,10.82302,VN,0,3
Philadelphia experts track pandemic,Philadelphia,United States,-75.16379,39.95233,US,3,0
Flu season hits Boston,Boston,United States,-71.05977,42.35843,US,3,0
Scientists in Paris to look for answers,Paris,France,2.3488,48.85341,FR,2,2
Key Zika Findings in San Diego Institute,San Diego,United States,-117.16472,32.71571,US,4,0
Thailand-Zika Virus in Bangkok,Bangkok,Thailand,100.50144,13.75398,TH,0,3
Beijing team cracks Zika secret,Beijing,China,116.39723,39.9075,CN,10,3
Zika spreading to Salvador,Salvador,Brazil,-38.51083,-12.97111,BR,5,1
Kuala Lumpur is Hit By Zika Threat,Kuala Lumpur,Malaysia,101.68653,3.1412,MY,0,3
First Zika case confirmed in Yangon,Yangon,Myanmar,96.15611,16.80528,MM,0,3
Tallahassee Doctors Discuss Zika Virus,Tallahassee,United States,-84.28073,30.43826,US,3,0
Zika Virus Reaches San Francisco,San Francisco,United States,-122.41942,37.77493,US,4,0
New Vaccine on Trial in Bethesda District,Bethesda,United States,-77.10026,38.98067,US,3,0
Townsville Zika tests inconclusive,Townsville,Australia,146.80569,-19.26639,AU,6,4
Mandaluyong City under Siege by Virus,Mandaluyong City,Philippines,121.0409,14.5832,PH,10,3
Hepatitis E re-emerges in Santa Rosa,Santa Rosa,Argentina,-64.28333,-36.61667,AR,5,1
Zika worries in San Salvador,San Salvador,El Salvador,-89.18718,13.68935,SV,1,0
Zika virus reported in Cleveland,Cleveland,United States,-81.69541,41.4995,US,3,0
More Zika patients reported in Austin,Austin,United States,-97.74306,30.26715,US,9,0
"Zika outbreak in Piracicaba, Brazil",Piracicaba,Brazil,-47.64917,-22.72528,BR,5,1
Lima tries to address Zika Concerns,Lima,Peru,-77.02824,-12.04318,PE,1,0
More people in Toronto are infected with Hepatitis E every year,Toronto,Canada,-79.4163,43.70011,CA,3,0
18 new Zika Cases in Bogota,Bogota,Colombia,-74.08175,4.60971,CO,1,0
Spanish Flu Sighted in Antigua,Antigua Guatemala,Guatemala,-90.73444,14.56111,GT,1,0
Brisbane is infested with Meningitis,Brisbane,Australia,153.02809,-27.46794,AU,6,4
Cholera outbreak in Dakar,Dakar,Senegal,-17.44406,14.6937,SN,2,5
Zika Virus Transmission Detected in Havana,Havana,Cuba,-82.38304,23.13302,CU,1,0
Zika symtomps spotted in Key West,Key West,United States,-81.78163,24.55524,US,3,0
Case of Measles Reported in Vancouver,Vancouver,Canada,-123.11934,49.24966,CA,4,0
"Seattle scientists get $500,000 grant to pursue Zika vaccine New 7:50 pm",Seattle,United States,-122.33207,47.60621,US,4,0
Nashville takes precautions against Zika,Nashville,United States,-86.78444,36.16589,US,3,0
Saint Croix under Zika threat,Saint Croix,U.S. Virgin Islands,-64.74698,17.72751,VI,1,0
Fort Collins Encounters Severe Symptoms of Gonorrhea,Fort Collins,United States,-105.08442,40.58526,US,9,0
"Zika surfaces in Klang, Malaysia",Klang,Malaysia,101.44333,3.03667,MY,0,3
Rumors about Meningitis spreading in Guatemala City have been refuted,Guatemala City,Guatemala,-90.51327,14.64072,GT,1,0
Madison lab developing vaccine against Zika virus [The Wisconsin State Journal],Madison,United States,-89.40123,43.07305,US,9,0
New Zika Case Confirmed in Sarasota County,Sarasota,United States,-82.53065,27.33643,US,3,0
Lower Hospitalization in Entebbe after Rabies Vaccine becomes Mandatory,Entebbe,Uganda,32.47949,0.05621,UG,7,6
Carnival under threat in Rio De Janeiro due to Zika outbreak,Rio de Janeiro,Brazil,-43.18223,-22.90642,BR,5,1
Second Zika Paitient in Brasilia,Brasilia,Brazil,-47.92972,-15.77972,BR,5,1
Jacksonville man hit by Zika,Jacksonville,United States,-81.65565,30.33218,US,3,0
Schools in Shenzhen Closed Due to Malaria Outbreak,Shenzhen,China,114.0683,22.54554,CN,10,3
Caracas patient dies,Caracas,Venezuela,-66.87919,10.48801,VE,1,0
More Quezon City Zika Transmissions,Quezon City,Philippines,121.0509,14.6488,PH,10,3
Schools in Sydney Closed Due to Respiratory Syncytial Virus Outbreak,Sydney,Australia,151.20732,-33.86785,AU,6,4
Mumbai's Health Minister warns of more Zika cases,Mumbai,India,72.88261,19.07283,IN,0,3
Pune woman diagnosed with Zika,Pune,India,73.85535,18.51957,IN,0,3
Hospitals in Hanoi fill up with Zika patients,Hanoi,Vietnam,105.84117,21.0245,VN,0,3
Zika case reported in Oton,Otan Ayegbaju,Nigeria,4.78836,7.94783,NG,7,7
Authorities are Worried about the Spread of Bronchitis in Silver Spring,Silver Spring,United States,-77.02609,38.99067,US,3,0
Zika: Delhi for strict monitoring,Delhi,India,77.23149,28.65195,IN,0,3
Hillsborough uses innovative trap against Zika 20 minutes ago,Helena,United States,-112.03611,46.59271,US,4,0
Belize City under threat from Zika,Belize City,Belize,-88.19756,17.49952,BZ,1,0
"Student sick in Campinas, Brazil",Campinas,Brazil,-47.06083,-22.90556,BR,5,1
More Zika cases in Soyapango,Soyapango,El Salvador,-89.13989,13.71024,SV,1,0
Authorities are Worried about the Spread of Mad Cow Disease in Rome,Rome,Italy,12.51133,41.89193,IT,2,2
Seoul confirms 14th Zika infection,Seoul,South Korea,126.9784,37.566,KR,10,3
Hepatitis B Vaccine is now Required in Quebec,Quebec,Canada,-71.21454,46.81228,CA,3,0
Zika outbreak spreads to Mexico City,Mexico,Mexico,-99.12766,19.42847,MX,9,0
Rochester authorities confirmed the spread of Dengue,Rochester,United States,-77.61556,43.15478,US,3,0
El Paso fighting Zika,El Paso,United States,-104.82136,38.83388,US,9,0
Visitor to Cucuta contracts Zika,Cucuta,Colombia,-72.50782,7.89391,CO,1,0
Zika now spreading through Jakarta,Jakarta,Indonesia,106.84513,-6.21462,ID,0,3
Salt Lake City tests new cure for Respiratory Syncytial Virus,Salt Lake City,United States,-111.89105,40.76078,US,4,0
Zika San Antonio Patient Speaks Out,San Antonio,United States,-98.49363,29.42412,US,9,0
Ebola outbreak in Kampala,Kampala,Uganda,32.58219,0.31628,UG,7,6
Precautionary Zika measures in Rockhampton,Rockhampton,Australia,150.50595,-23.38032,AU,6,4
Zika arrives in Tegucigalpa,Tegucigalpa,Honduras,-87.20681,14.0818,HN,1,0
New Zika Case Confirmed in Belo Horizonte,Belo Horizonte,Brazil,-43.93778,-19.92083,BR,5,1
Case of Hepatitis E Reported in Melbourne,Melbourne,Australia,144.96332,-37.814,AU,6,4
First Columbus Zika case,Columbus,United States,-82.99879,39.96118,US,3,0
New medicine wipes out Tuberculosis in Taipei,Taipei,Taiwan,121.53185,25.04776,TW,10,3
"Zika Patient in Seminole, Florida",Seminole,United States,-82.79121,27.83975,US,3,0
Antipolo under threat from Zika Virus,Antipolo,Philippines,121.12251,14.62578,PH,10,3
Spreading Zika reaches Bacoor,Bacoor,Philippines,120.93851,14.45896,PH,10,3
Can Zika make it here to Vero Beach?,Vero Beach,United States,-80.39727,27.63864,US,3,0
Zika afflicts patient in Calamba,Calamba,Philippines,121.16528,14.21167,PH,10,3
Hollywood Outbreak Film Premieres,Hollywood,United States,-118.32674,34.09834,US,4,0
Petaling Jaya man ill from Zika,Petaling Jaya,Malaysia,101.60671,3.10726,MY,0,3
Malaria is Spreading in Johannesburg,Johannesburg,South Africa,28.04363,-26.20227,ZA,7,8
Authorities are Worried about the Spread of Norovirus in Buenos Aires,Buenos Aires,Argentina,-58.37723,-34.61315,AR,5,1
Guangzhou Patient in Critical Condition after Contracting Swine Flu,Guangzhou,China,113.25,23.11667,CN,10,3
Doral hit by Deadly Virus,Doral,United States,-80.35533,25.81954,US,3,0
Tokyo Encounters Severe Symptoms of Meningitis,Tokyo,Japan,139.69171,35.6895,JP,10,3
Rabies Exposure in Hamilton,Hamilton,New Zealand,175.28333,-37.78333,NZ,6,9
Authorities are Worried about the Spread of Influenza in Savannah,Savannah,United States,-81.09983,32.08354,US,3,0
Zika Outbreak in Hyderabad,Hyderabad,Pakistan,68.37366,25.39242,PK,8,3
Birmingham Residents Recieve Rabies vaccine,Birmingham,United Kingdom,-1.89983,52.48142,GB,2,2
Is Zika virus in Majuro?,Majuro,Marshall Islands,171.38027,7.08971,MH,6,-1
Spreading Zika ruining Cancun fun,Cancun,Mexico,-86.84656,21.17429,MX,1,0
Cancun hit by Outbreak of Party Fever!,Cancun,Mexico,-86.84656,21.17429,MX,1,0
HIV has Arrived in Fairfax,Fairfax,United States,-77.30637,38.84622,US,3,0
Spanish Flu Outbreak in Barcelona,Barcelona,Spain,2.15899,41.38879,ES,2,2
Santa Barbara tests new cure for Hepatitis C,Santa Barbara,United States,-119.69819,34.42083,US,4,0
Spring break ruined by Zika in Fort Lauderdale,Fort Lauderdale,United States,-80.14338,26.12231,US,3,0
Villavicencio under Zika threat,Villavicencio,Colombia,-73.62664,4.142,CO,1,0
Two more Zika cases confirmed in Laredo,Laredo,United States,-99.50754,27.50641,US,9,0
New Delhi Addressing Zika Concerns,New Delhi,India,77.23149,28.65195,IN,0,3
"New Zika Case in Kota Kinabalu, Malaysia",Kota Kinabalu,Malaysia,116.0724,5.9749,MY,10,3
New medicine wipes out West Nile Virus in Ventura,Ventura,United States,-119.29317,34.27834,US,4,0
Meningitis re-emerges in Nassau,Nassau,Bahamas,-77.34306,25.05823,BS,3,0
"Zika reaches Johor Bahru, Malaysia",Johor Bahru,Malaysia,103.7578,1.4655,MY,0,3
Nha Trang Zika Outbreak,Nha Trang,Vietnam,109.19432,12.24507,VN,0,3
First Zika Case in Cincinnati,Cincinnati,United States,-84.51439,39.12711,US,3,0
Molo Cholera Spread Causing Concern,Molo,Kenya,35.73194,-0.24849,KE,7,6
Norovirus Exposure in Hong Kong,Hong Kong,Hong Kong,114.17469,22.27832,HK,10,3
19 new Zika Cases in Sengkang,Sengkang,Indonesia,120.0297,-4.1279,ID,10,-1
Zika cases concern Charlotte residents,Charlotte,United States,-80.84313,35.22709,US,3,0
Batangas Tourism Takes a Hit as Virus Spreads,Batangas,Philippines,121.0584,13.7567,PH,10,3
Johannesburg Patient in Critical Condition after Contracting Pneumonia,Johannesburg,South Africa,28.04363,-26.20227,ZA,7,8
Outbreak of Zika in Bacolod City,Bacolod City,Philippines,122.95,10.66667,PH,10,3
Respiratory Syncytial Virus Keeps Spreading in Masaya,Masaya,Nicaragua,-86.09417,11.97444,NI,1,0
Spike of Pneumonia Cases in Springfield,Springfield,United States,-89.64371,39.80172,US,9,0
More Zika patients reported in Mcallen,Mora,Cameroon,14.14011,11.04611,CM,7,7
Zika case reported in Jupiter,Jupiter,United States,-80.09421,26.93422,US,3,0
Zika virus confirmed in Westchester,Westchester,United States,-80.32727,25.75482,US,3,0
Authorities are Worried about the Spread of Tuberculosis in Abuja,Abuja,Nigeria,7.49508,9.05785,NG,7,7
Rumors about Hepatitis D Spreading in San Juan Capistrano have been Refuted,San Juan Capistrano,United States,-117.66255,33.50169,US,4,0
The Spread of Measles in Spokane has been Confirmed,Spokane,United States,-117.42908,47.65966,US,4,0
Zika alert for Rio Grande Valley residents,Rio Grande,Argentina,-67.70946,-53.78769,AR,5,-1
Zika symptoms spotted in Colombo,Colombo,Sri Lanka,79.84868,6.93548,LK,0,3
West Nile Virus Outbreak in Louisville,Louisville,United States,-85.75941,38.25424,US,3,0
New details in Baton Rouge cop killings,Baton Rouge,United States,-91.18747,30.44332,US,9,0
Hepatitis B has not Left Florence,Florence,Italy,11.24626,43.77925,IT,2,2
More Zika patients reported in Pensacola,Pensacola,United States,-87.21691,30.42131,US,9,0
Outbreak of Zika in Corpus Christi,Corpus Christi,United States,-97.39638,27.80058,US,9,0
How to Avoid Rhinovirus in Lemon Grove,Lemon Grove,United States,-117.03142,32.74255,US,4,0
Rumors about Rotavirus spreading in Huntsville have been refuted,Huntsville,United States,-86.58594,34.7304,US,3,0
Rhinovirus has Arrived in Athens,Athens,Greece,23.72784,37.98376,GR,8,2
Outbreak of Zika in Panama City,Panama,Panama,-79.51973,8.9936,PA,1,0
Measles has not Left Brooklyn,Brooklyn,United States,-73.94958,40.6501,US,3,0
Escondido neighborhood to get sprayed for Zika virus,Escondido,United States,-117.08642,33.11921,US,4,0
"Zika in Belmont, Belmont worry",Belmont,United States,-122.2758,37.52021,US,4,0
Influenza has not Left Sacramento,Sacramento,United States,-121.4944,38.58157,US,4,0
Veracruz hit by Zika Concerns,Veracruz,Mexico,-96.1429,19.18095,MX,9,0
Case of Mumps Reported in Dayton,Dayton,United States,-84.19161,39.75895,US,3,0
Authorities are Worried about the Spread of Dengue in Kingston,Kingston,Norfolk Island,167.96628,-29.05459,NF,6,-1
Gainesville Deals with Disease Concerns,Gainesville,United States,-82.32483,29.65163,US,3,0
Montevideo Encounters Severe Symptoms of Rotavirus,Montevideo,Uruguay,-56.18816,-34.90328,UY,5,1
Varicella Keeps Spreading in Detroit,Detroit,United States,-83.04575,42.33143,US,3,0
Arhus is infested with Bronchitis,Arhus,Denmark,10.21076,56.15674,DK,2,2
Zika Troubles come to Niteroi,Niteroi,Brazil,-43.10361,-22.88333,BR,5,1
Zika cases in Singapore reach 393,Singapore,Singapore,103.85007,1.28967,SG,0,3
Manhattan Residents Recieve HIV vaccine,Manhattan,United States,-73.96625,40.78343,US,3,0
Zika arrives in Miri,Miri,Malaysia,113.99163,4.39928,MY,10,3
Rumors about Dengue Spreading in Syracuse have been Refuted,Syracuse,United States,-76.14742,43.04812,US,3,0
Will Norovirus vaccine help Raleigh?,Raleigh,United States,-78.63861,35.7721,US,3,0
Lower Hospitalization in Auckland after Hepatitis D Vaccine becomes Mandatory,Auckland,New Zealand,174.76349,-36.84853,NZ,6,9
How to Avoid Gonorrhea in Shreveport,Shreveport,United States,-93.75018,32.52515,US,9,0
Ithaca is infested with Dengue,Ithaca,United States,-76.49661,42.44063,US,3,0
Will MCD vaccine help Strasbourg?,Strasbourg,France,7.74553,48.58392,FR,2,2
New medicine wipes out Measles in Fresno,Fresno,United States,-119.77237,36.74773,US,4,0
BREAKING a Zika in Missoula,Missoula,United States,-113.994,46.87215,US,4,0
Zika arrives in Santos,Santos,Brazil,-46.33361,-23.96083,BR,5,1
Sick Livestock Leads to Serious Trouble for Belfort,Belfort,France,6.85385,47.64218,FR,2,2
Hepatitis E has not Left Libreville,Libreville,Gabon,9.45356,0.39241,GA,7,7
New medicine wipes out Chikungunya in Tucson,Tucson,United States,-110.92648,32.22174,US,4,0
Norovirus has Arrived in Winnipeg,Winnipeg,Canada,-97.14704,49.8844,CA,9,0
Hepatitis B Comes to Kansas City,Kansas City,United States,-94.57857,39.09973,US,9,0
More Patients in Cambridge are Getting Diagnosed with Chickenpox,Cambridge,United Kingdom,0.11667,52.2,GB,2,2
Chikungunya Exposure in Toledo,Toledo,Spain,-4.02263,39.8581,ES,2,2
Is Lafayette prepared to combat Zika?,Lafayette,United States,-92.01984,30.22409,US,9,0
Mecca tests new cure for Chikungunya,Mecca,Saudi Arabia,39.82563,21.42664,SA,8,2
Zika arrives in San Benito,San Benito,United States,-97.6311,26.13258,US,9,0
Syphilis Outbreak in Harrisburg,Harrisburg,United States,-134.41972,58.30194,US,4,-1
Zika Arrives in North Miami,North Miami,United States,-80.18671,25.89009,US,3,0
Urbana Encounters Severe Symptoms of Meningitis,Urbana,United States,-88.20727,40.11059,US,9,0
Pittsburgh Residents Recieve Norovirus vaccine,Pittsburgh,United States,-79.99589,40.44062,US,3,0
Chikungunya Hits Denver,Denver,United States,-104.9847,39.73915,US,9,0
Zika case recorded in Tunapuna A>>,Tunapuna,Trinidad and Tobago,-61.38878,10.65245,TT,1,0
Spike of Respiratory Syncytial Virus Cases in Mandalay,Mandalay,Myanmar,96.08359,21.97473,MM,0,3
HIV Keeps Spreading in Boulder,Boulder,United States,-105.27055,40.01499,US,9,0
More Zika patients reported in Joao Pessoa,Joao Pessoa,Brazil,-34.86306,-7.115,BR,5,1
Will Tuberculosis vaccine help Rockville?,Rockville,United States,-77.15276,39.084,US,3,0
Mad Cow Disease Re-emerges in Chatham,Chatham,United Kingdom,0.52786,51.37891,GB,2,2
Zika Virus Arrives in Ontario,Ontario,United States,-117.65089,34.06334,US,4,0
Mad Cow Disease Hits Naples,Naples,Italy,14.26811,40.85216,IT,2,2
More Zika patients reported in Davao,Davao,Philippines,125.61278,7.07306,PH,10,3
The Spread of Chikungunya in Arcadia has been Confirmed,Arcadia,United States,-118.03534,34.13973,US,4,0
Oxford tests new cure for HIV,Oxford,United Kingdom,-1.25596,51.75222,GB,2,2
Outbreak of Zika in Stephenville,Stephenville,United States,-98.20226,32.2207,US,9,0
Providence Encounters Severe Symptoms of Dengue,Providence,United States,-76.49184,38.97859,US,3,0
Tests negative on Windsor Zika carriers,Windsor,Canada,-83.01654,42.30008,CA,3,0
Zika battle outlined at Valdosta meeting,Valdosta,United States,-83.28032,30.83334,US,3,0
Zika case reported in Coral Gables,Coral Gables,United States,-80.26838,25.72149,US,3,0
Hepatitis C Outbreak in Danbury,Danbury,United States,-73.45401,41.39482,US,3,0
Chickenpox has Arrived in Chula Vista,Chula Vista,United States,-117.0842,32.64005,US,4,0
Syphilis Hits Jefferson,Jefferson City,United States,-92.17352,38.5767,US,9,0
Will HIV vaccine help Las Vegas?,Las Vegas,United States,-115.13722,36.17497,US,4,0
Zika arrives in West Palm Beach,West Palm Beach,United States,-80.05337,26.71534,US,3,0
Mobile authorities confirmed the spread of Bronchitis,Mobile,United States,-88.04305,30.69436,US,9,0
Zika spreads to Daytona Beach,Daytona Beach,United States,-81.02283,29.21081,US,3,0
Lausanne Residents Recieve Meningitis vaccine,Lausanne,Switzerland,6.63282,46.516,CH,2,2
Rhinovirus Comes to San Jose,San Jose,United States,-121.89496,37.33939,US,4,0
Spike of Chlamydia Cases in Farmington,Farmington,United States,-108.21869,36.72806,US,4,0
Authorities are Worried about the Spread of Rotavirus in Union,Union,United States,-124.08284,40.86652,US,4,0
Rumors about Hepatitis D spreading in Albany have been refuted,Albany,United States,-73.75623,42.65258,US,3,0
Zika symptoms spotted in Bello,Bello,Colombia,-75.55795,6.33732,CO,1,0
Will Meningitis vaccine help Hamburg?,Hamburg,Germany,9.99302,53.55073,DE,2,2
Madera Patient in Critical Condition after Contracting Rabies,Madera,United States,-120.06072,36.96134,US,4,0
Zika Virus Detected in Lubbock,Lubbock,United States,-101.85517,33.57786,US,9,0
Malaria re-emerges in Boise,Boise,United States,-116.20345,43.6135,US,4,0
Varicella re-emerges in Lagos,Lagos,Nigeria,3.39467,6.45407,NG,7,7
Vericella spreading in Ibadan,Ibadan,Nigeria,3.90591,7.37756,NG,7,7
Schools in Birmingham Closed Due to Measles Outbreak,Birmingham,United Kingdom,-1.89983,52.48142,GB,2,2
How to Avoid Hepatitis B in Waldorf,Waldorf,United States,-76.93914,38.62456,US,3,0
More people in Mclean are infected with Hepatitis A every year,Mora,Cameroon,14.14011,11.04611,CM,7,7
Tuberculosis Outbreak in Newark,Newark,United States,-74.17237,40.73566,US,3,0
Zika Virus Sparks 'International Concern',Sparks,United States,-119.75269,39.53491,US,4,0
Spike of Chlamydia Cases in Berlin,Berlin,Germany,13.41053,52.52437,DE,2,2
Zika-carrying mosquitoes discovered in Ardmore,Ardmore,United States,-97.14363,34.17426,US,9,0
"Zika Mosquitoes May Have Bred in Bromeliads, Florida Officials Say",Florida,Colombia,-76.2348,3.3223,CO,1,0
More Livestock in Fontainebleau are infected with Mad Cow Disease,Fontainebleau,France,2.70177,48.40908,FR,2,2
Frisco Woman Tests Positive For Zika Virus,Frisco,United States,-122.41942,37.77493,US,4,0
Authorities are Worried about the Spread of Norovirus in Dubai,Dubai,United Arab Emirates,55.30927,25.07725,AE,8,-1
Benton Residents Recieve Pneumonia vaccine,Benton,United States,-92.58683,34.56454,US,9,0
Case of Hepatitis A Reported in Calgary,Calgary,Canada,-114.08529,51.05011,CA,4,0
Zika Outbreak in Pinewood,Pinewood,United States,-80.21699,25.86898,US,3,0
Will Swine Flu vaccine help Ljubljana?,Ljubljana,Slovenia,14.50513,46.05108,SI,2,2
Bronchitis re-emerges in Tehran,Tehran,Iran,51.42151,35.69439,IR,8,2
Mad Cow case in Murcia,Murcia,Spain,-1.13004,37.98704,ES,2,2
Mad Cow Disease Spreads to Margate,Margate,United Kingdom,1.38617,51.38132,GB,2,2
Zika Strikes St. Petersburg,St. Petersburg,United States,-82.67927,27.77086,US,3,0
Will the Mad Cow Outbreak Reach Vienna?,Vienna,Austria,16.37208,48.20849,AT,2,2
More Patients in Orange are Getting Diagnosed with Chickenpox,Orange,United States,-117.85311,33.78779,US,4,0
Lower Hospitalization in Richmond after Mumps Vaccine becomes Mandatory,Richmond,United States,-77.46026,37.55376,US,3,0
Meningitis re-emerges in Medina,Medina,Saudi Arabia,39.61417,24.46861,SA,8,2
Four cases of Zika in Hidalgo County,Hidalgo,Mexico,-100.55445,19.6927,MX,9,0
Zika symptoms spotted in Hollywood,Hollywood,United States,-118.32674,34.09834,US,4,0
Zika arrives in Oaxaca,Oaxaca,Mexico,-96.72365,17.06542,MX,9,0
More people in Durham are infected with Chlamydia every year,Durham,United Kingdom,-1.57566,54.77676,GB,2,2
Authorities are Worried about the Spread of Gonorrhea in Taoyuan City,Taoyuan City,Taiwan,121.29696,24.99368,TW,10,3
Swine Flu re-emerges in La Jolla,La Jolla,United States,-117.2742,32.84727,US,4,0
Tuberculosis Outbreak in Hartford,Hartford,United States,-72.68509,41.76371,US,3,0
Rumors about Mumps Spreading in New Bedford have been Refuted,New Bedford,United States,-70.92701,41.63526,US,3,0
Respiratory Syncytial Virus Vaccine is now Required in Tulsa,Tulsa,United States,-95.99277,36.15398,US,9,0
More people in Indianapolis are infected with Norovirus every year,Indianapolis,United States,-86.15804,39.76838,US,3,0
Lower Hospitalization in Dhaka after Measles Vaccine becomes Mandatory,Dhaka,Bangladesh,90.40744,23.7104,BD,0,3
Albany Residents Recieve Respiratory Syncytial Virus vaccine,Albany,United States,-73.75623,42.65258,US,3,0
Rotavirus Vaccine is now Required in Starkville,Starkville,United States,-88.81961,33.45049,US,9,0
Schools in Yaounde Closed Due to Mumps Outbreak,Yaounde,Cameroon,11.51667,3.86667,CM,7,7
More people in Nadi are infected with HIV every year,Nadi,Fiji,177.41617,-17.80309,FJ,6,10
Tocumen tests new cure for Hepatitis A,Tocumen,Panama,-79.3831,9.08939,PA,1,0
Phnom Penh hit by Zika Threat,Phnom Penh,Cambodia,104.91601,11.56245,KH,0,3
Zika Troubles come to Harlingen,Harlingen,United States,-97.6961,26.19063,US,9,0
Zika spreads to Barranquilla,Barranquilla,Colombia,-74.78132,10.96854,CO,1,0
Milwaukee authorities confirmed the spread of Rhinovirus,Milwaukee,United States,-87.90647,43.0389,US,3,0
Mad Cow Disease Hits Rotterdam,Rotterdam,Netherlands,4.47917,51.9225,NL,2,2
Zika symptoms spotted in Arlington,Arlington,United States,-97.10807,32.73569,US,9,0
West Nile Virus Hits Yogyakarta,Yogyakarta,Indonesia,110.36472,-7.80139,ID,0,3
More Patients in Dublin are Getting Diagnosed with Bronchitis,Dublin,Ireland,-6.24889,53.33306,IE,2,2
Rumors about Tuberculosis Spreading in Baud have been Refuted,Baud,India,84.32618,20.83773,IN,0,3
Rumors about West Nile Virus Spreading in Salem have been Refuted,Salem,United States,-123.0351,44.9429,US,4,0
St. Catharines Patient in Critical Condition after Contracting Dengue,St. Catharines,Canada,-79.24267,43.17126,CA,3,0
More Zika patients reported in Camacari,Camacari,Brazil,-38.32417,-12.6975,BR,5,1
Outbreak of Zika in Pasig City,Pasig City,Philippines,121.0614,14.58691,PH,10,3
Zika Troubles come to Kampong Cham,Kampong Cham,Cambodia,105.4635,11.99339,KH,0,3
Zika case reported in Rizal,Rizal,Philippines,121.1061,15.7118,PH,10,3
Zika Spreads to Palm Beach Gardens,Palm Beach Gardens,United States,-80.13865,26.82339,US,3,0
More people in Saint Petersburg are infected with Varicella every year,Saint Petersburg,Russia,30.31413,59.93863,RU,8,2
Spike of Herpes Cases in Meriden,Meriden,United States,-72.80704,41.53815,US,3,0
Zika case reported in Abilene,Abilene,United States,-99.73314,32.44874,US,9,0
Outbreak of Zika in Palm Springs,Palm Springs,United States,-116.54529,33.8303,US,4,0
Halifax is infested with Swine Flu,Halifax,United Kingdom,-1.85,53.71667,GB,2,2
Zika arrives in Natal,Natal,Brazil,-35.20944,-5.795,BR,5,1
Herpes Keeps Spreading in Rochester,Rochester,United States,-77.61556,43.15478,US,3,0
Zika case reported in Phetchabun,Phetchabun,Thailand,101.16056,16.41904,TH,0,3
How to Avoid Pneumonia in Bullhead City,Bullhead City,United States,-114.5683,35.14778,US,4,0
West Nile Virus re-emerges in Wellington,Wellington,New Zealand,174.77557,-41.28664,NZ,6,9
Rumors about Pneumonia spreading in Ottawa have been refuted,Ottawa,Canada,-75.69812,45.41117,CA,3,0
Meningitis re-emerges in Summerville,Summerville,United States,-80.17565,33.0185,US,3,0
Pneumonia Symptoms Spread all over Bloomington,Bloomington,United States,-88.99369,40.4842,US,9,0
More Patients in Stuttgart are Getting Diagnosed with Rabies,Stuttgart,Germany,9.17702,48.78232,DE,2,2
Schools in Glasgow Closed Due to Hepatitis B Outbreak,Glasgow,United Kingdom,-4.25763,55.86515,GB,2,2
Phoenix Residents Recieve Syphilis vaccine,Phoenix,United States,-112.07404,33.44838,US,4,0
More people in Boucau are infected with HIV every year,Mora,Cameroon,14.14011,11.04611,CM,7,7
Spanish flu spreading in Madrid,Madrid,Spain,-3.70256,40.4165,ES,2,2
Rabies Hits Madrid,Madrid,Spain,-3.70256,40.4165,ES,2,2
Zika Outbreak in Weslaco,Weslaco,United States,-97.99084,26.15952,US,9,0
How to Avoid Chlamydia in Santiago,Santiago,Chile,-70.64827,-33.45694,CL,5,1
Rotavirus Vaccine is now Required in Las Cumbres,Las Cumbres,Panama,-79.52809,9.08916,PA,1,0
Mumps Symptoms Spread all over Jefferson,Jefferson City,United States,-92.17352,38.5767,US,9,0
Mad Cow Outbreak Spreading in Ennis,Ennis,Ireland,-8.98639,52.84361,IE,2,2
Southampton Patient in Critical Condition after Contracting Tuberculosis,Southampton,United Kingdom,-1.40428,50.90395,GB,2,2
The Spread of Rhinovirus in Boardman has been Confirmed,Boardman,United States,-80.66285,41.02423,US,3,0
Richland Center is infested with Hepatitis B,Richland,United States,-117.85311,33.78779,US,4,0
Authorities are Worried about the Spread of Chickenpox in Richmond,Richmond,United States,-77.46026,37.55376,US,3,0
Chikungunya re-emerges in Kobe,Kobe,Japan,135.183,34.6913,JP,10,3
Malaria Vaccine is now Required in Schenectady,Schenectady,United States,-73.93957,42.81424,US,3,0
Hepatitis D has Arrived in Grenoble,Grenoble,France,5.71479,45.17869,FR,2,2
West Nile Virus Symptoms Spread all over Yerevan,Yerevan,Armenia,44.51361,40.18111,AM,8,2
Zika Outbreak in Sincelejo,Sincelejo,Colombia,-75.39778,9.30472,CO,1,0
Rumors about HIV spreading in Montpellier have been refuted,Montpellier,France,3.87723,43.61092,FR,2,2
Praia tests new cure for Pneumonia,Praia,Cabo Verde,-23.51254,14.93152,CV,2,5
Lower Hospitalization in Lakewood after Hepatitis B Vaccine becomes Mandatory,Lakewood,United States,-105.08137,39.70471,US,9,0
Zika spreads to Kuching,Kuching,Malaysia,110.33333,1.55,MY,0,3
Spike of Rotavirus Cases in Omaha,Omaha,United States,-95.94043,41.25626,US,9,0
Tuberculosis re-emerges in Silver Springs,Springs,South Africa,28.4,-26.25,ZA,7,8
Will West Nile Virus vaccine help Coronado?,Coronado,United States,-117.18309,32.68589,US,4,0
Zika case confirmed in Lorain,Lorain,United States,-82.18237,41.45282,US,3,0
Chickenpox Hits Simpsonville,Simpsonville,United States,-82.25428,34.73706,US,3,0
Framingham Residents Receive Measles vaccine,Framingham,United States,-71.41617,42.27926,US,3,0
Rumors about Mad Cow Disease Brighton have been Refuted,Brighton,United Kingdom,-0.13947,50.82838,GB,2,2
Zika case reported in Jacobina,Jacobina,Brazil,-40.51372,-11.18143,BR,5,1
Bridgeport authorities confirmed the spread of West Nile Virus,Bridgeport,United States,-73.18945,41.17923,US,3,0
Measles Vaccine is now Required in Wailuku,Wailuku,United States,-156.50604,20.89133,US,4,-1
Zika symptoms spotted in Surat,Surat,India,72.83023,21.19594,IN,0,3
More contaminated cattle reported in Bedford,Bedford,United Kingdom,-0.46632,52.13459,GB,2,2
Zika in Tamarac!,Tamarac,United States,-80.24977,26.21286,US,3,0
Will Measles vaccine help Milford?,Milford,United States,-74.17237,40.73566,US,3,0
Spike of Norovirus Cases in Huddersfield,Huddersfield,United Kingdom,-1.78416,53.64904,GB,2,2
Rhinovirus Hits Bakersfield,Bakersfield,United States,-119.01871,35.37329,US,4,0
Lower Hospitalization in Papeete after Measles Vaccine becomes Mandatory,Papeete,French Polynesia,-149.5665,-17.53733,PF,4,-1
Zika arrives in Udon Thani,Udon Thani,Thailand,102.78589,17.41567,TH,0,3
Spike of Dengue Cases in Stockholm,Stockholm,Sweden,18.06871,59.32938,SE,2,2
More people in Berkeley are infected with Swine Flu every year,Berkeley,United States,-122.27275,37.87159,US,4,0
Zika only the latest mosquito-borne threat to New Orleans,New Orleans,United States,-90.07507,29.95465,US,9,0
Will Swine Flu vaccine help Annapolis?,Annapolis,United States,-76.49184,38.97859,US,3,0
Lower Hospitalization in Monroe after Hepatitis D Vaccine becomes Mandatory,Monroe,United States,-92.1193,32.50931,US,9,0
New medicine wipes out Dengue in Saginaw,Saginaw,United States,-83.95081,43.41947,US,3,0
Spike of Rhinovirus Cases in Sevierville,Sevierville,United States,-83.56184,35.86815,US,3,0
Duisburg up in Arms over Mad Cow Disease,Duisburg,Germany,6.76516,51.43247,DE,2,2
New medicine wipes out Mumps in Saint Charles,Saint Charles,United States,-104.9847,39.73915,US,9,0
Case of Chikungunya Reported in Gaithersburg,Gaithersburg,United States,-77.20137,39.14344,US,3,0
How to Avoid Respiratory Syncytial Virus in San Bernardino,San Bernardino,United States,-117.28977,34.10834,US,4,0
Laventille authorities confirmed the spread of Rhinovirus,Laventille,Trinidad and Tobago,-61.49889,10.64917,TT,1,0
More Zika patients reported in Waco,Waco,United States,-97.14667,31.54933,US,9,0
Will Herpes vaccine help Newcastle?,Newcastle,Australia,151.7801,-32.92953,AU,6,4
Erie County sets Zika traps,Erie,United States,-80.08506,42.12922,US,3,0
More people in Huron are infected with Dengue every year,Mora,Cameroon,14.14011,11.04611,CM,7,7
How to Avoid Norovirus in Greenville,Greenville,United States,-82.39401,34.85262,US,3,0
More Zika patients reported in Calumpang,Calumpang,Philippines,121.0897,14.6228,PH,10,3
Zika symptoms spotted in Quisqueya,Quisqueya,Dominican Republic,-69.40814,18.55542,DO,1,0
Rumors about Hepatitis D Spreading in Montreal have been Refuted,Montreal,Canada,-73.58781,45.50884,CA,3,0
Zika symptoms spotted in Fortaleza,Fortaleza,Brazil,-38.54306,-3.71722,BR,5,1
Rumors about Bronchitis spreading in Bundaberg have been refuted,Bundaberg,Australia,152.3479,-24.86621,AU,6,4
Hepatitis A re-emerges in Stamford,Stamford,United States,-73.53873,41.05343,US,3,0
Schools in Huntington Closed Due to Rotavirus Outbreak,Huntington,United States,-117.29116,34.53611,US,4,0
Will Mad Cow Vaccine Help Bristol?,Bristol,United Kingdom,-2.59665,51.45523,GB,2,2
Chickenpox Comes to Stillwater,Stillwater,United States,-97.05837,36.11561,US,9,0
The Spread of Meningitis in Imperial has been Confirmed,Imperial,United States,-115.56944,32.84755,US,4,0
Will Tuberculosis vaccine help Cherry Creek?,Baytown,United States,-94.97743,29.7355,US,9,0
Case of Measles Reported in Springdale,Springdale,United States,-94.12881,36.18674,US,9,0
Norwalk Encounters Severe Symptoms of Malaria,Norwalk,United States,-73.4079,41.1176,US,3,0
Zika arrives in Orange City,Orange,United States,-117.85311,33.78779,US,4,0
Pilsen Encounters Severe Symptoms of Malaria,Pilsen,Czechia,13.37759,49.74747,CZ,2,2
Will Hepatitis B vaccine help La Paz?,La Paz,Bolivia,-68.15,-16.5,BO,5,-1
Zika Outbreak in Puducherry,Puducherry,India,79.82979,11.93381,IN,0,3
More Zika patients reported in Carrollton,Carrollton,United States,-96.89028,32.95373,US,9,0
Will Rabies vaccine help Tangier?,Tangier,Morocco,-5.79975,35.76727,MA,2,2
Zika symptoms spotted in Iquitos,Iquitos,Peru,-73.25383,-3.74912,PE,1,0
West Nile Virus Exposure in Racine,Racine,United States,-87.78285,42.72613,US,3,0
The Spread of Hepatitis E in Lansing has been Confirmed,Lansing,United States,-84.55553,42.73253,US,3,0
West Nile Virus Exposure in Alpharetta,Alpharetta,United States,-84.29409,34.07538,US,3,0
Pedro Juan Caballero Encounters Severe Symptoms of Pneumonia,Pedro Juan Caballero,Paraguay,-55.73333,-22.54722,PY,5,1
More Zika patients reported in Melbourne,Melbourne,Australia,144.96332,-37.814,AU,6,4
Zika Troubles come to La Libertad,La Libertad,El Salvador,-89.32222,13.48833,SV,1,0
Herpes Vaccine is now Required in Mattoon,Mattoon,United States,-88.37283,39.48309,US,9,0
Kent is infested with Rabies,Kent,United States,-81.35789,41.15367,US,3,0
Zika symptoms spotted in Bonita Springs,Bonita Springs,United States,-81.7787,26.33981,US,3,0
The Spread of Malaria in Brazzaville has been Confirmed,Brazzaville,Republic of the Congo,15.28318,-4.26613,CG,7,7
More Zika patients reported in Fort Myers,Fort Myers,United States,-81.84059,26.62168,US,3,0
Zika spreads to Lewisville,Lewisville,United States,-96.99417,33.04623,US,9,0
Ogden is infested with Gonorrhea,Ogden,United States,-111.97383,41.223,US,4,0
Fort Hood Reports its First Zika Patient,Fort Hood,United States,-97.77561,31.13489,US,9,0
Huzhou Residents Receive Hepatitis B vaccine,Huzhou,China,120.0933,30.8703,CN,10,3
New medicine wipes out Rabies in Newburgh,Newburgh,United States,-74.01042,41.50343,US,3,0
Iowa City Encounters Severe Symptoms of Rhinovirus,Iowa City,United States,-91.53017,41.66113,US,9,0
Spike of Rabies Cases in Managua,Managua,Nicaragua,-86.2504,12.13282,NI,1,0
Outbreak of Zika in Santa Elena,Santa Elena,Ecuador,-80.85873,-2.22622,EC,1,0
Mumps Hits Howard Beach,Howard Beach,United States,-73.83625,40.65788,US,3,0
The Spread of Gonorrhea in Reno has been Confirmed,Reno,United States,-119.8138,39.52963,US,4,0
How to Avoid Rhinovirus in Plainfield,Plainfield,United States,-74.40737,40.63371,US,3,0
Rumors about Varicella spreading in Carlsbad have been refuted,Carlsbad,United States,-117.35059,33.15809,US,4,0
Scranton authorities confirmed the spread of Gonorrhea,Scranton,United States,-75.6649,41.40916,US,3,0
Mad Cow Disease Disastrous to Brussels,Brussels,Belgium,4.34878,50.85045,BE,2,2
Zika spreads to Olinda,Olinda,Brazil,-34.85528,-8.00889,BR,5,1
Hallandale Beach a Victim of Zika Outbreak,Hallandale Beach,United States,-80.14838,25.9812,US,3,0
Rhinovirus re-emerges in Storrs,Storrs,United States,-72.24952,41.80843,US,3,0
Germantown authorities confirmed the spread of Chickenpox,Germantown,United States,-77.27165,39.17316,US,3,0
Rumors about Rotavirus spreading in North Platte have been refuted,North Platte,United States,-100.76542,41.12389,US,9,0
Spike of Hepatitis C Cases in Golden,Golden,United States,-105.2211,39.75554,US,9,0
Authorities are Worried about the Spread of Hepatitis D in Ganja,Ganja,Azerbaijan,46.36056,40.68278,AZ,8,2
Dengue Exposure in Kathmandu,Kathmandu,Nepal,85.3206,27.70169,NP,0,3
Tuberculosis has Arrived in Fairfield,Fairfield,United States,-122.03997,38.24936,US,4,0
Outbreak of Zika in Kozhikode,Kozhikode,India,75.7804,11.24802,IN,0,3
Bronchitis Symptoms Spread all over Santa Fe,Santa Fe,United States,-105.9378,35.68698,US,9,0
More Patients in Alexandria are Getting Diagnosed with Mumps,Alexandria,Egypt,29.91582,31.20176,EG,8,2
Pneumonia Exposure in Alhambra,Alhambra,United States,-118.12701,34.09529,US,4,0
Hepatitis C re-emerges in Damascus,Damascus,Syria,36.29128,33.5102,SY,8,2
Lower Hospitalization in Pekanbaru after Rotavirus Vaccine becomes Mandatory,Pekanbaru,Indonesia,101.44167,0.51667,ID,0,3
Schools in Bentonville Closed Due to Hepatitis B Outbreak,Bentonville,United States,-94.20882,36.37285,US,9,0
Hepatitis E Hits Hammond,Hammond,United States,-87.50004,41.58337,US,3,0
Schools in Bridgeton Closed Due to Mumps Outbreak,Bridgeton,United States,-75.23408,39.42734,US,3,0
Biloxi Residents Recieve Chlamydia vaccine,Biloxi,United States,-88.88531,30.39603,US,9,0
Case of Mad Cow Disease Reported in Hilden,Hilden,Germany,6.93093,51.16818,DE,2,2
Rumors about Rabies Spreading in Khartoum have been Refuted,Khartoum,Sudan,32.53241,15.55177,SD,8,2
Harare is infested with Pneumonia,Harare,Zimbabwe,31.05337,-17.82772,ZW,7,8
Zika symptoms spotted in Sibu,Sibu,Malaysia,111.81667,2.3,MY,0,3
Zika arrives in Quezon,Quezon,Philippines,121.0509,14.6488,PH,10,3
More Patients in Crawfordsville are Getting Diagnosed with Rabies,Crawfordsville,United States,-86.87445,40.04115,US,3,0
Spike of Hepatitis B Cases in Greenville,Greenville,United States,-82.39401,34.85262,US,3,0
Authorities are Worried about the Spread of Hepatitis D in Akron,Akron,United States,-81.51901,41.08144,US,3,0
More Zika patients reported in Nuevo Laredo,Nuevo Laredo,Mexico,-99.51639,27.47629,MX,9,0
Bronchitis Keeps Spreading in San Mateo,San Mateo,United States,-122.32553,37.56299,US,4,0
Zika arrives in Boca Raton,Boca Raton,United States,-80.0831,26.35869,US,3,0
Bradenton Experiences Zika Troubles,Bradenton,United States,-82.57482,27.49893,US,3,0
Chlamydia Symptoms Spread all over University City,University City,United States,-90.30928,38.65588,US,9,0
Wisconsin Rapids Patient in Critical Condition after Contracting Chickenpox,Wisconsin Rapids,United States,-89.81735,44.38358,US,9,0
Zika spreads to Kissimmee,Kissimmee,United States,-81.41667,28.30468,US,3,0
Herpes Symptoms Spread all over Fremont,Fremont,United States,-121.98857,37.54827,US,4,0
Spike of Pneumonia Cases in The Bronx,The Bronx,United States,-73.86641,40.84985,US,3,0
Authorities are Worried about the Spread of Hepatitis D in North Bay,North Bay,Canada,-79.46633,46.3168,CA,3,0
The Spread of Herpes in Baku has been Confirmed,Baku,Azerbaijan,49.89201,40.37767,AZ,8,2
Will Measles vaccine help Sochi?,Sochi,Russia,39.72569,43.59917,RU,8,2
Tuberculosis Symptoms Spread all over Caguas,Caguas,Puerto Rico,-66.0485,18.23412,PR,1,0
HIV has Arrived in Tacoma,Tacoma,United States,-122.44429,47.25288,US,4,0
Malaria re-emerges in Nashua,Nashua,United States,-71.46757,42.76537,US,3,0
Arvada is infested with Syphilis,Arvada,United States,-105.08748,39.80276,US,9,0
Spike of Syphilis Cases in West Monroe,Monroe,United States,-92.1193,32.50931,US,9,0
More Zika patients reported in Ribeirao Preto,Ribeirao Preto,Brazil,-47.81028,-21.1775,BR,5,1
Martinsville tests new cure for Measles,Martinsburg,United States,-77.96389,39.45621,US,3,0
Deerfield tests new cure for Measles,Deerfield,United States,-80.09977,26.31841,US,3,0
Contaminated Meat Brings Trouble for Bonn Farmers,Bonn,Germany,7.09549,50.73438,DE,2,2
More Patients in Magnolia are Getting Diagnosed with Malaria,Mora,Cameroon,14.14011,11.04611,CM,7,7
Hepatitis A re-emerges in Foster City,Foster City,United States,-122.27108,37.55855,US,4,0
How to Avoid Tuberculosis in Santa Monica,Santa Monica,United States,-118.49119,34.01945,US,4,0
Zika reported in Fort Pierce,Fort Pierce,United States,-80.32561,27.44671,US,3,0
Authorities are Worried about the Spread of Syphilis in Pyongyang,Pyongyang,North Korea,125.75432,39.03385,KP,10,3
Zika spreads to Winter Park,Winter Park,United States,-81.33924,28.6,US,3,0
Durango is infested with Hepatitis B,Durango,United States,-107.88007,37.27528,US,4,0
Hepatitis A has not Left Staten Island,Staten Island,United States,-74.13986,40.56233,US,3,0
Mpika authorities confirmed the spread of Chikungunya,Mpika,Zambia,31.45287,-11.83431,ZM,7,8
Gladstone Encounters Severe Symptoms of Dengue,Gladstone,Australia,151.25775,-23.84852,AU,6,4
Mad Cow Disease Hits London,London,United Kingdom,-0.12574,51.50853,GB,2,2
New Milford Patient in Critical Condition after Contracting Respiratory Syncytial Virus,New Milford,United States,-74.01903,40.9351,US,3,0
More people in Palo Alto are infected with HIV every year,Palo Alto,United States,-122.14302,37.44188,US,4,0
HIV Symptoms Spread all over Hinthada,Hinthada,Myanmar,95.45705,17.64944,MM,0,3
Zika symptoms spotted in Quito,Quito,Ecuador,-78.52495,-0.22985,EC,1,0
Vineland authorities confirmed the spread of Chlamydia,Vineland,United States,-75.02573,39.48623,US,3,0
"Sulu, Zamboanga brace for Zika",Zamboanga,Philippines,122.07389,6.91028,PH,10,3
More Zika patients reported in Custodia,Custodia,Brazil,-37.64306,-8.0875,BR,5,1
Tupelo Residents Recieve Syphilis vaccine,Tupelo,United States,-88.70464,34.25807,US,9,0
Spanish Flu Outbreak in Lisbon,Lisbon,Portugal,-9.13333,38.71667,PT,2,2
Spanish Flu Spreading through Madrid,Madrid,Spain,-3.70256,40.4165,ES,2,2
Barcelona Struck by Spanish Flu,Barcelona,Spain,2.15899,41.38879,ES,2,2
The Spread of Dengue in Yakima has been Confirmed,Yakima,United States,-120.5059,46.60207,US,4,0
Tuberculosis Hits Luanda,Luanda,Angola,13.23432,-8.83682,AO,7,7
Will West Nile Virus vaccine help Dumai?,Dumai,Indonesia,101.44316,1.66711,ID,0,3
Rumors about Chlamydia spreading in Redmond have been refuted,Redmond,United States,-122.12151,47.67399,US,4,0
Case of Varicella Reported in Concord,Concord,United States,-71.53757,43.20814,US,3,0
Zika virus case reported in Rockland,Rockland,United States,-70.91616,42.13066,US,3,0
Zika investigators coming to Mankato,Mankato,United States,-94.00915,44.15906,US,9,0
Toms River Encounters Severe Symptoms of Respiratory Syncytial Virus,Toms River,United States,-74.19792,39.95373,US,3,0
The Spread of Malaria in Zanzibar has been Confirmed,Zanzibar,Tanzania,39.19793,-6.16394,TZ,7,6
Malaria Outbreak Hits Zanzibar's Tourist Industry,Zanzibar,Tanzania,39.19793,-6.16394,TZ,7,6
Tourist Perishes from Malaria in Arusha,Arusha,Tanzania,36.68333,-3.36667,TZ,7,6
Herpes Symptoms Spread all over New Kingston,New Kingston,Jamaica,-76.78319,18.00747,JM,1,0
More people in Yokohama are infected with Norovirus every year,Yokohama,Japan,139.65,35.43333,JP,10,3
More people in Kitwe are infected with Respiratory Syncytial Virus every year,Kitwe,Zambia,28.21323,-12.80243,ZM,7,8
Hepatitis D Keeps Spreading in Bismarck,Bismarck,United States,-100.78374,46.80833,US,9,0
Varicella Outbreak in Minot,Minot,United States,-101.29627,48.23251,US,9,0
Malaria has Arrived in Terrebonne,Terrebonne,Canada,-73.64732,45.70004,CA,3,0
Chikungunya Keeps Spreading in North Vancouver,North Vancouver,Canada,-123.06934,49.31636,CA,4,0
Authorities are Worried about the Spread of Chickenpox in Hemet,Hemet,United States,-116.97307,33.74761,US,4,0
More people in Oak Brook are infected with Respiratory Syncytial Virus every year,Mora,Cameroon,14.14011,11.04611,CM,7,7
Rumors about Hepatitis C spreading in Darien have been refuted,Darien,United States,-73.46929,41.07871,US,3,0
The Spread of West Nile Virus in Fairfield has been Confirmed,Fairfield,United States,-122.03997,38.24936,US,4,0
Princeton Encounters Severe Symptoms of Dengue,Princeton,United States,-74.65905,40.34872,US,3,0
Norovirus Keeps Spreading in Copenhagen,Copenhagen,Denmark,12.56553,55.67594,DK,2,2
Wuhan is infested with Varicella,Wuhan,China,114.26667,30.58333,CN,10,3
Zika spreads to San Luis Potosi,San Luis Potosi,Mexico,-100.97916,22.14982,MX,9,0
Spike of Norovirus Cases in Canberra,Canberra,Australia,149.12807,-35.28346,AU,6,4
Zika Troubles come to Greater Noida,Greater Noida,India,77.53601,28.49615,IN,0,3
Lower Hospitalization in Palm Springs after Hepatitis A Vaccine becomes Mandatory,Palm Springs,United States,-116.54529,33.8303,US,4,0
Outbreak of Zika in Leesburg,Leesburg,United States,-81.87786,28.81082,US,3,0
Authorities are Worried about the Spread of Tuberculosis in Cantu,Cantu,Italy,9.13084,45.74096,IT,2,2
New medicine wipes out HIV in Kihei,Kihei,United States,-156.44578,20.76462,US,4,-1
Sangre Grande Residents Recieve Gonorrhea vaccine,Sangre Grande,Trinidad and Tobago,-61.13008,10.58705,TT,1,0
Outbreak of Zika in Colombo,Colombo,Sri Lanka,79.84868,6.93548,LK,0,3
Will Rotavirus vaccine help Addis Ababa?,Addis Ababa,Ethiopia,38.74689,9.02497,ET,7,2
Stony Brook University experts discuss Zika virus,Princeton,United States,-74.65905,40.34872,US,3,0
Lower Hospitalization in Janesville after Varicella Vaccine becomes Mandatory,Janesville,United States,-89.01872,42.68279,US,9,0
Rabies Outbreak in Altus,Altus,United States,-99.33398,34.63813,US,9,0
Miami resident suggests Zika precautions,Miami,United States,-80.19366,25.77427,US,3,0
Zika Troubles come to Jaen,Jaen,Spain,-3.79028,37.76922,ES,2,2
Hepatitis B Exposure in Edinburgh,Edinburgh,United Kingdom,-3.19648,55.95206,GB,2,2
Zika case reported in Reynosa,Reynosa,Mexico,-98.28835,26.08061,MX,9,0
Schools in Tulare Closed Due to Mumps Outbreak,Tulare,United States,-119.34734,36.20773,US,4,0
More Zika patients reported in Chennai,Chennai,India,80.27847,13.08784,IN,0,3
Hepatitis D Keeps Spreading in Danvers,Danvers,United States,-70.93005,42.57509,US,3,0
Authorities a Miami,Miami,United States,-80.19366,25.77427,US,3,0
Zika case reported in Medellin,Medellin,Colombia,-75.56359,6.25184,CO,1,0
Spike of Tuberculosis Cases in Albuquerque,Albuquerque,United States,-106.65114,35.08449,US,9,0
More people in Cranford are infected with Hepatitis A every year,Cranford,United States,-74.29959,40.65844,US,3,0
West Nile Virus Hits Monroe,Monroe,United States,-92.1193,32.50931,US,9,0
Pneumonia Outbreak in Springville,Springville,United States,-111.61075,40.16523,US,4,0
Zika arrives in San Onofre,San Onofre,Colombia,-75.52626,9.73586,CO,1,0
Lung Cancer Rates Increasing in Moscow,Moscow,Russia,37.61556,55.75222,RU,8,2
Rumors about Rotavirus Spreading in Joliet have been Refuted,Joliet,United States,-88.0834,41.52519,US,9,0
More Zika patients reported in Chanthaburi,Chanthaburi,Thailand,102.10447,12.60961,TH,0,3
Lawrenceville is infested with Dengue,Lawrenceville,United States,-83.98796,33.95621,US,3,0
Zika Reported in Ciudad Acuna,Ciudad Acuna,Mexico,-100.95217,29.32322,MX,9,0
Zika case reported in Limoeiro,Limoeiro,Brazil,-35.45028,-7.87472,BR,5,1
Ibadan tests new cure for Malaria,Ibadan,Nigeria,3.90591,7.37756,NG,7,7
Gonorrhea has Arrived in Avon Lake,Avon Lake,United States,-82.0282,41.50532,US,3,0
Pneumonia has not Left Kinshasa,Kinshasa,Democratic Republic of the Congo,15.31357,-4.32758,CD,7,7
Respiratory Syncytial Virus Hits Henderson,Henderson,United States,-114.98194,36.0397,US,4,0
More Zika patients reported in Lakeland,Lakeland,United States,-81.9498,28.03947,US,3,0
Malaria Vaccine is now Required in Winona,Winona,United States,-91.63932,44.04996,US,9,0
More Patients in Canton are Getting Diagnosed with Norovirus,Canton,United States,-71.14477,42.15843,US,3,0
Ronkonkoma is infested with Chickenpox,Ronkonkoma,United States,-73.11233,40.81538,US,3,0
Kedougou tests new cure for Hepatitis C,Kedougou,Senegal,-12.18076,12.55561,SN,7,5
Gonorrhea Exposure in Norwalk,Norwalk,United States,-73.4079,41.1176,US,3,0
How to Avoid Rhinovirus in Medford,Medford,United States,-122.87559,42.32652,US,4,0
Hepatitis D Symptoms Spread all over Evansville,Evansville,United States,-87.55585,37.97476,US,3,0
New medicine wipes out Herpes in Bossier City,Bossier City,United States,-93.73212,32.51599,US,9,0
Pneumonia Exposure in San Jose,San Jose,United States,-121.89496,37.33939,US,4,0
Authorities are Worried about the Spread of Mad Cow Disease in Edinburgh,Edinburgh,United Kingdom,-3.19648,55.95206,GB,2,2
Duluth Patient in Critical Condition after Contracting Rotavirus,Duluth,United States,-92.10658,46.78327,US,9,0
Norfolk tests new cure for Herpes,Norfolk,United States,-76.28522,36.84681,US,3,0
More Zika patients reported in Botucatu,Botucatu,Brazil,-48.445,-22.88583,BR,5,1
Manassas Encounters Severe Symptoms of Measles,Manassas,United States,-77.47527,38.75095,US,3,0
Fayetteville authorities confirmed the spread of HIV,Fayetteville,United States,-78.87836,35.05266,US,3,0
Varicella Exposure in Cambridge,Cambridge,United Kingdom,0.11667,52.2,GB,2,2
Hepatitis A Vaccine is now Required in Fukushima,Fukushima,Japan,140.46667,37.75,JP,10,3
Zika Outbreak in South Miami,Miami,United States,-80.19366,25.77427,US,3,0
Hepatitis D Symptoms Spread all over North Bethesda,North Bethesda,United States,-77.11887,39.04455,US,3,0
Panama Cityas first Zika related death,Panama,Panama,-79.51973,8.9936,PA,1,0
West Nile Virus has Arrived in Dongguan,Dongguan,China,113.74866,23.01797,CN,10,3
Zika arrives in Belmopan,Belmopan,Belize,-88.76667,17.25,BZ,1,0
Zika seminars in Yuma County,Yuma,United States,-114.6244,32.72532,US,4,0
Rumors about Hepatitis E Spreading in Morristown have been Refuted,Morristown,United States,-82.55402,35.60095,US,3,0
Mumps Outbreak in Joplin,Joplin,United States,-94.51328,37.08423,US,9,0
Authorities are Worried about the Spread of Mumps in Corona,Corona,United States,-117.56644,33.87529,US,4,0
Schools in Danville Closed Due to Tuberculosis Outbreak,Danville,United States,-87.63002,40.12448,US,3,0
Marquette tests new cure for Hepatitis A,Marquette,United States,-87.39542,46.54354,US,3,0
Norovirus Vaccine is now Required in Anaheim,Anaheim,United States,-117.9145,33.83529,US,4,0
Zika Outbreak in Manaus,Manaus,Brazil,-60.025,-3.10194,BR,5,-1
Zika spreads to Caucasia,Caucasia,Colombia,-75.19349,7.98654,CO,1,0
Case of Malaria Reported in Aurora,Aurora,United States,-104.83192,39.72943,US,9,0
Manchester Residents Recieve Influenza vaccine,Manchester,United Kingdom,-2.23743,53.48095,GB,2,2
Zika spreads to Kamphaeng Phet,Kamphaeng Phet,Thailand,99.52153,16.48344,TH,0,3
Rotavirus Vaccine is now Required in Labasa,Labasa,Fiji,179.36451,-16.4332,FJ,6,10
The Spread of Hepatitis E in Fargo has been Confirmed,Fargo,United States,-96.7898,46.87719,US,9,0
Zika Outbreak in Mexicali,Mexicali,Mexico,-115.45446,32.62781,MX,4,0
West Nile Virus Keeps Spreading in Hauppauge,Hauppauge,United States,-73.20261,40.82565,US,3,0
Bronchitis Keeps Spreading in Hayward,Hayward,United States,-122.0808,37.66882,US,4,0
Schools in Coamo Closed Due to Rhinovirus Outbreak,Douai,France,3.07922,50.37069,FR,2,2
Zika spreads to Plant City,Plant City,United States,-82.11469,28.01888,US,3,0
Chlamydia Exposure in Sanaa,Sanaa,Yemen,44.20667,15.35472,YE,8,2
Zika Reported in North Miami Beach,North Miami Beach,United States,-80.16255,25.93315,US,3,0
More Patients in Kensington are Getting Diagnosed with Varicella,Kensington,Australia,151.22241,-33.92019,AU,6,4
More Patients in Maynard are Getting Diagnosed with Syphilis,Mora,Cameroon,14.14011,11.04611,CM,7,7
Case of West Nile Virus Reported in Riverside,Riverside,United States,-117.39616,33.95335,US,4,0
Northfield Encounters Severe Symptoms of Herpes,Northfield,United States,-93.1616,44.4583,US,9,0
The Spread of Respiratory Syncytial Virus in Monroe has been Confirmed,Monroe,United States,-92.1193,32.50931,US,9,0
How to Avoid Hepatitis B in Trenton,Trenton,United States,-74.74294,40.21705,US,3,0
Zika Reported in Ilopango,Ilopango,El Salvador,-89.10944,13.70167,SV,1,0
Barstow Patient in Critical Condition after Contracting Herpes,Barstow,United States,-117.02282,34.89859,US,4,0
Hepatitis D Exposure in Aswan,Aswan,Egypt,32.89942,24.09082,EG,8,2
Will Gonorrhea vaccine help East Moline?,East Moline,United States,-90.4443,41.50087,US,9,0
New medicine wipes out Influenza in Redlands,Redlands,United States,-117.18254,34.05557,US,4,0
How to Avoid Contaminated Meat when Visiting Basel,Basel,Switzerland,7.57327,47.55839,CH,2,2
More Zika patients reported in Kampong Speu,Kampong Speu,Cambodia,104.52085,11.45332,KH,0,3
Alameda Residents Recieve Rabies vaccine,Alameda,United States,-122.26087,37.77099,US,4,0
Mad Cow Disease Detected in Lyon,Lyon,France,4.84671,45.74846,FR,2,2
Memphis Encounters Severe Symptoms of Swine Flu,Memphis,United States,-90.04898,35.14953,US,9,0
Zika Troubles come to Delray Beach,Delray Beach,United States,-80.07282,26.46146,US,3,0
How to Avoid Chikungunya in Hampton,Hampton,United States,-76.34522,37.02987,US,3,0
Zika Reported in Sao Jose,Sao Jose,Brazil,-49.1632,-28.21171,BR,5,1
Case of Norovirus Reported in Stratford,Stratford,Canada,-80.94972,43.36679,CA,3,0
How to Avoid Hepatitis E in South Bend,South Bend,United States,-86.25001,41.68338,US,3,0
Hepatitis C Outbreak in Bethlehem,Bethlehem,Palestinian Territory,35.20376,31.70487,PS,8,2
Davenport is infested with Dengue,Davenport,United States,-90.57764,41.52364,US,9,0
Rumors about Swine Flu spreading in Suzhou have been refuted,Suzhou,China,120.59538,31.30408,CN,10,3
Malaria Vaccine is now Required in Elyria,Elyria,United States,-82.10765,41.36838,US,3,0
Zika case reported in Antioquia,Antakya,Turkey,36.15722,36.20655,TR,8,2
Case of Swine Flu Reported in Tbilisi,Tbilisi,Georgia,44.83368,41.69411,GE,8,2
Zika spreads to La Joya,La Jolla,United States,-117.2742,32.84727,US,4,0
Influenza Keeps Spreading in Suffolk,Suffolk,United States,-76.58496,36.72836,US,3,0
More people in Allentown are infected with Chlamydia every year,Allentown,United States,-81.78163,24.55524,US,3,0
Mad Cow Disease re-emerges in Bedford,Bedford,United Kingdom,-0.46632,52.13459,GB,2,2
Authorities are Worried about the Spread of Hepatitis B in Yiwu,Yiwu,China,120.07676,29.31506,CN,10,3
Zika Outbreak in Yurimaguas,Yurimaguas,Peru,-76.12234,-5.90181,PE,1,0
Dengue Outbreak in Easton,Easton,United States,-75.22073,40.68843,US,3,0
Varicella has Arrived in Milton,Milton,United States,-94.57857,39.09973,US,9,0
New medicine wipes out Meningitis in Sevilla,Sevilla,Spain,-5.97317,37.38283,ES,2,2
Authorities are Worried about the Spread of Varicella in Clovis,Clovis,United States,-119.70292,36.82523,US,4,0
More Zika patients reported in Fort Worth,Fort Worth,United States,-97.32085,32.72541,US,9,0
Zika symptoms spotted in Boynton Beach,Boynton Beach,United States,-80.06643,26.52535,US,3,0
Outbreak of Zika in Portoviejo,Portoviejo,Ecuador,-80.45445,-1.05458,EC,1,0
Influenza Exposure in Muscat,Muscat,Oman,58.40778,23.58413,OM,8,-1
Rumors about Rabies spreading in Jerusalem have been refuted,Jerusalem,Israel,35.21633,31.76904,IL,8,2
More Zika patients reported in Indang,Indang,Philippines,120.87694,14.19528,PH,10,3
Suva authorities confirmed the spread of Rotavirus,Suva,Fiji,178.44149,-18.14161,FJ,6,10
More Zika patients reported in Bella Vista,Bella Vista,United States,-94.27134,36.4807,US,9,0
Zika Outbreak in Wichita Falls,Wichita Falls,United States,-98.49339,33.91371,US,9,0
